City_ID,City,Lat,Lng,Max Temp,Humidity,Cloudiness,Wind Speed,Country,Date
0,hobart,-42.8794,147.3294,282.62,86,3,5.14,AU,1681741879
1,mataura,-46.1927,168.8643,284.53,90,100,1.26,NZ,1681742158
2,vestmanna,62.1564,-7.1664,282.66,100,100,7.2,FO,1681742159
3,santa isabel,-23.3156,-46.2214,299.76,59,1,5.3,BR,1681742159
4,tiarei,-17.5333,-149.3333,298.16,79,66,5.26,PF,1681742160
5,arraial do cabo,-22.9661,-42.0278,302.07,61,0,7.2,BR,1681741936
6,soyaniquilpan,19.9833,-99.5,288.12,60,16,1.84,MX,1681742162
7,san policarpo,12.1791,125.5072,300.99,78,100,3.09,PH,1681742163
8,anadyr,64.75,177.4833,256.43,84,0,2.0,RU,1681742163
9,punta arenas,-53.15,-70.9167,274.21,93,100,9.26,CL,1681742109
10,kargil,34.5667,76.1,278.55,60,86,2.92,IN,1681742165
11,balykshi,47.0667,51.8667,286.15,35,0,7.0,KZ,1681742166
12,adrar,20.5022,-10.0711,307.14,16,0,6.44,MR,1681742168
13,qaanaaq,77.484,-69.3632,260.09,78,0,1.26,GL,1681742170
14,rikitea,-23.1203,-134.9692,299.47,81,100,6.75,PF,1681742170
15,codrington,-38.2667,141.9667,286.96,90,99,4.68,AU,1681742171
16,batemans bay,-35.7167,150.1833,285.98,88,0,1.93,AU,1681742172
17,aklavik,68.2191,-135.0107,256.57,90,94,7.34,CA,1681742172
18,kavieng,-2.5744,150.7967,300.97,76,84,2.05,PG,1681742173
19,norman wells,65.282,-126.8329,264.17,86,100,6.69,CA,1681742174
20,bluff,-46.6,168.3333,284.71,85,100,5.1,NZ,1681742174
21,iwaki,37.05,140.8833,283.02,64,95,5.41,JP,1681742175
22,charleville-mezieres,49.7667,4.7167,284.14,76,86,6.02,FR,1681742176
23,sao felix do xingu,-6.6447,-51.995,304.72,57,86,0.84,BR,1681742176
24,nanortalik,60.1432,-45.2371,274.02,88,87,1.71,GL,1681742177
25,makakilo city,21.3469,-158.0858,295.33,85,0,2.06,US,1681742179
26,pascagoula,30.3658,-88.5561,290.39,60,0,1.54,US,1681741888
27,vila velha,-20.3297,-40.2925,302.12,72,40,4.12,BR,1681741938
28,pevek,69.7008,170.3133,254.06,79,5,3.58,RU,1681742183
29,olinda,-8.0089,-34.8553,303.0,66,20,3.6,BR,1681742185
30,kavaratti,10.5669,72.642,302.52,72,4,3.9,IN,1681742185
31,airai,-8.9266,125.4092,288.92,93,100,0.3,TL,1681742186
32,los llanos de aridane,28.6585,-17.9182,293.01,75,75,5.14,ES,1681742187
33,victoria,22.2855,114.1577,300.48,82,8,7.15,HK,1681741932
34,margate,51.3813,1.3862,283.88,82,100,2.24,GB,1681742051
35,cape town,-33.9258,18.4232,294.77,69,0,4.12,ZA,1681742191
36,coahuayana,18.7333,-103.6833,301.59,56,1,0.39,MX,1681742192
37,vuktyl,63.8567,57.3094,272.88,96,99,2.44,RU,1681742192
38,sitka,57.0531,-135.33,277.09,87,75,0.0,US,1681742098
39,lagoa,39.05,-27.9833,287.23,63,91,6.84,PT,1681742194
40,port elizabeth,-33.918,25.5701,297.31,53,0,3.6,ZA,1681742195
41,tuktoyaktuk,69.4541,-133.0374,261.15,85,100,2.06,CA,1681742196
42,georgetown,5.4112,100.3354,303.68,79,20,3.09,MY,1681742067
43,chernyshevskiy,63.0128,112.4714,253.15,100,48,1.83,RU,1681742197
44,ushuaia,-54.8,-68.3,277.94,75,75,2.06,AR,1681742197
45,thompson,55.7435,-97.8558,265.24,73,20,3.6,CA,1681742198
46,iqaluit,63.7506,-68.5145,258.0,77,40,12.35,CA,1681742199
47,talara,-4.5772,-81.2719,299.57,83,40,5.66,PE,1681742200
48,tuatapere,-46.1333,167.6833,286.43,81,100,3.4,NZ,1681742201
49,jamestown,42.097,-79.2353,281.22,72,100,4.63,US,1681742144
50,bathsheba,13.2167,-59.5167,301.49,61,20,9.26,BB,1681742204
51,sao joao da barra,-21.6403,-41.0511,302.2,73,1,4.55,BR,1681742205
52,busselton,-33.65,115.3333,287.9,78,12,4.64,AU,1681742206
53,algiers,36.7525,3.042,292.05,42,20,9.26,DZ,1681742083
54,longyearbyen,78.2186,15.6401,273.06,80,75,8.23,SJ,1681742208
55,yanam,16.7333,82.2167,300.57,75,0,2.62,IN,1681742208
56,nelson bay,-32.7167,152.15,293.71,79,4,2.68,AU,1681742210
57,ribeira grande,38.5167,-28.7,290.37,59,40,6.69,PT,1681742211
58,bowen,-20.0167,148.2333,298.3,77,95,4.93,AU,1681742125
59,mahebourg,-20.4081,57.7,297.73,77,31,5.04,MU,1681742213
60,chokurdakh,70.6333,147.9167,251.4,100,95,1.09,RU,1681742214
61,klaksvik,62.2266,-6.589,283.66,97,100,7.73,FO,1681742215
62,nantucket,41.2835,-70.0995,286.23,100,100,6.69,US,1681741934
63,sabaudia,41.3003,13.0282,291.43,57,99,2.58,IT,1681742218
64,manado,1.487,124.8455,299.58,94,40,1.03,ID,1681742219
65,nikolskoye,59.7035,30.7861,285.09,45,52,2.24,RU,1681742220
66,saint-philippe,-21.3585,55.7679,300.92,84,77,3.69,RE,1681742221
67,gwadar,25.1216,62.3254,299.87,69,81,5.02,PK,1681742222
68,lebu,-37.6167,-73.65,285.64,70,47,4.6,CL,1681741948
69,nabire,-3.3667,135.4833,297.88,92,100,3.03,ID,1681742223
70,bambous virieux,-20.3428,57.7575,297.71,76,37,4.93,MU,1681742223
71,vaini,-21.2,-175.2,296.24,94,100,6.17,TO,1681742225
72,poum,-20.2333,164.0167,299.21,84,93,7.72,NC,1681742226
73,hithadhoo,-0.6,73.0833,302.31,65,8,1.37,MV,1681742226
74,sena madureira,-9.0656,-68.6569,300.94,78,100,1.52,BR,1681742227
75,port alfred,-33.5906,26.891,297.69,68,1,1.34,ZA,1681742228
76,chuy,-33.6971,-53.4616,291.68,53,74,4.49,UY,1681742229
77,barrow,71.2906,-156.7887,245.16,76,0,4.63,US,1681742229
78,qianan,44.9932,124.0581,284.69,39,56,10.81,CN,1681742232
79,mattru,7.6244,-11.8332,307.75,46,85,2.64,SL,1681742233
80,caravelas,-17.7125,-39.2481,300.67,65,46,2.73,BR,1681742233
81,sakakah,29.9697,40.2064,303.91,24,0,5.12,SA,1681742235
82,bubaque,11.2833,-15.8333,299.39,73,9,6.18,GW,1681742235
83,bethel,41.3712,-73.414,286.79,90,100,1.54,US,1681742236
84,kaeo,-35.1,173.7833,292.22,90,54,5.93,NZ,1681742237
85,mapiripan,2.8892,-72.1256,298.64,84,100,2.16,CO,1681742238
86,atambua,-9.1061,124.8925,296.15,90,100,1.5,ID,1681742238
87,bengkulu,-3.8004,102.2655,298.52,86,36,1.46,ID,1681742239
88,kawalu,-7.3817,108.2082,296.75,97,85,0.45,ID,1681742240
89,thinadhoo,0.5333,72.9333,302.13,68,12,1.18,MV,1681742241
90,mar del plata,-38.0023,-57.5575,291.94,73,0,6.69,AR,1681742120
91,humaita,-7.5061,-63.0208,301.75,77,97,2.1,BR,1681742243
92,yellowknife,62.456,-114.3525,273.46,69,40,6.17,CA,1681742243
93,faanui,-16.4833,-151.75,300.75,75,99,4.91,PF,1681742244
94,salalah,17.0151,54.0924,303.2,70,20,5.66,OM,1681742245
95,palu,-0.8917,119.8707,297.95,95,87,0.96,ID,1681742246
96,albany,42.6001,-73.9662,286.13,92,100,0.45,US,1681742144
97,killarney,52.05,-9.5167,289.01,70,86,4.86,IE,1681742248
98,kenai,60.5544,-151.2583,272.12,88,0,2.57,US,1681742248
99,mayumba,-3.432,10.6554,300.72,79,91,2.48,GA,1681742249
100,saurimo,-9.6608,20.3916,292.63,90,100,1.98,AO,1681742250
101,llanes,43.4198,-4.7549,287.93,67,0,7.69,ES,1681742251
102,paamiut,61.994,-49.6678,271.8,81,19,10.51,GL,1681742252
103,ancud,-41.8697,-73.8203,283.62,58,24,2.6,CL,1681742252
104,hermanus,-34.4187,19.2345,293.6,65,1,1.88,ZA,1681742255
105,ostrovnoy,68.0531,39.5131,269.68,84,9,1.68,RU,1681742256
106,ouesso,1.6136,16.0517,302.33,54,96,2.23,CG,1681742256
107,uvira,-3.4067,29.1458,298.68,79,83,2.62,CD,1681742257
108,gulu,2.7746,32.299,292.93,92,100,3.16,UG,1681742258
109,alice springs,-23.7,133.8833,283.9,87,0,3.09,AU,1681742110
110,poso,-1.3959,120.7524,299.16,82,100,2.12,ID,1681742260
111,atuona,-9.8,-139.0333,300.49,78,13,8.86,PF,1681742261
112,touros,-5.1989,-35.4608,303.18,67,62,5.22,BR,1681742261
113,powell river,49.8496,-124.5361,279.37,73,97,5.84,CA,1681742262
114,zacler,50.6633,15.9106,282.81,99,92,4.66,CZ,1681742262
115,mehamn,71.0357,27.8492,278.12,87,75,6.69,NO,1681742264
116,cabo san lucas,22.8909,-109.9124,296.77,57,3,2.93,MX,1681742268
117,bredasdorp,-34.5322,20.0403,295.0,51,0,3.58,ZA,1681742269
118,avarua,-21.2078,-159.775,296.18,56,97,2.06,CK,1681742009
119,manta,-0.95,-80.7333,299.03,78,100,1.03,EC,1681742271
120,new norfolk,-42.7826,147.0587,282.43,75,3,1.17,AU,1681742272
121,las cruces,32.3123,-106.7783,290.6,30,67,1.34,US,1681742146
122,areosa,41.7178,-8.8571,294.14,56,96,3.85,PT,1681742274
123,miandrivazo,-19.5167,45.4667,301.46,64,84,1.26,MG,1681742274
124,lazaro cardenas,17.9583,-102.2,300.79,63,92,1.84,MX,1681742043
125,butaritari,3.0707,172.7902,300.7,76,99,2.37,KI,1681742275
126,geraldton,-28.7667,114.6,292.38,72,100,7.2,AU,1681742276
127,tete,-16.1564,33.5867,299.13,61,66,2.16,MZ,1681742276
128,port hedland,-20.3167,118.5667,296.18,38,8,3.6,AU,1681742277
129,kapaa,22.0752,-159.319,295.14,93,75,2.06,US,1681742278
130,teya,60.3778,92.6267,269.66,88,100,3.39,RU,1681742279
131,ponta do sol,32.6667,-17.1,295.77,72,86,0.76,PT,1681742280
132,fortuna,40.5982,-124.1573,281.29,95,100,0.45,US,1681742280
133,sioux lookout,50.1001,-91.917,268.19,80,100,6.17,CA,1681742281
134,mount isa,-20.7333,139.5,293.02,42,0,5.14,AU,1681742286
135,calabozo,8.9242,-67.4293,305.32,45,71,3.23,VE,1681742287
136,bonavista,48.6499,-53.1147,273.42,83,100,2.24,CA,1681742288
137,ayagoz,47.9714,80.4392,273.26,91,98,6.84,KZ,1681742289
138,san quintin,30.4833,-115.95,286.87,76,100,5.44,MX,1681742290
139,hilo,19.7297,-155.09,294.97,93,0,3.6,US,1681742272
140,castro,-24.7911,-50.0119,294.5,89,94,4.83,BR,1681742291
141,tessalit,20.1986,1.0114,309.24,4,0,5.04,ML,1681742292
142,magadan,59.5667,150.8,266.78,85,100,3.09,RU,1681742294
143,upernavik,72.7868,-56.1549,258.68,95,100,3.49,GL,1681742294
144,la ronge,55.1001,-105.2842,275.29,64,0,3.09,CA,1681742296
145,pisco,-13.7,-76.2167,299.18,69,20,0.51,PE,1681742108
146,kahului,20.8947,-156.47,295.84,88,0,2.06,US,1681741998
147,severo-yeniseyskiy,60.3725,93.0408,267.48,90,100,3.61,RU,1681742298
148,quixada,-4.9714,-39.0153,305.75,50,54,2.9,BR,1681742090
149,vung tau,10.346,107.0843,300.83,83,63,4.35,VN,1681742300
150,winnemucca,40.973,-117.7357,275.18,55,0,2.06,US,1681742302
151,isangel,-19.55,169.2667,299.91,88,100,7.19,VU,1681742303
152,nizwa,22.9333,57.5333,303.82,24,32,5.58,OM,1681742303
153,cherskiy,68.75,161.3,258.15,90,34,2.1,RU,1681742304
154,san vicente,-26.6167,-54.1333,291.63,99,100,0.68,AR,1681742305
155,carnarvon,-24.8667,113.6333,295.17,69,17,7.91,AU,1681742306
156,daru,-9.0763,143.2092,299.55,85,100,3.05,PG,1681742307
157,kaitangata,-46.2817,169.8464,285.59,86,100,1.33,NZ,1681742307
158,faya,18.3851,42.4509,294.21,49,8,3.6,SA,1681742309
159,walvis bay,-22.9575,14.5053,306.68,31,0,3.09,NA,1681742310
160,popondetta,-8.7537,148.2534,296.43,93,100,1.04,PG,1681742311
161,urucara,-2.5364,-57.76,300.99,85,99,1.21,BR,1681742311
162,hambantota,6.1241,81.1185,300.34,100,20,1.03,LK,1681742312
163,nakusp,50.2499,-117.8023,274.34,93,100,2.06,CA,1681742313
164,aswan,24.0934,32.907,309.76,6,0,3.09,EG,1681742313
165,gushikawa,26.3544,127.8686,295.92,79,0,3.6,JP,1681742314
166,champerico,14.3,-91.9167,301.45,60,40,1.86,GT,1681742315
167,westerland,54.9079,8.3033,287.6,54,20,5.14,DE,1681742315
168,dingle,10.9995,122.6711,299.15,84,79,2.25,PH,1681742316
169,mineral wells,32.8085,-98.1128,292.74,51,0,2.57,US,1681742317
170,grindavik,63.8424,-22.4338,283.12,87,75,11.32,IS,1681742318
171,beinamar,8.6698,15.3813,312.33,18,53,2.96,TD,1681742319
172,verkhniy baskunchak,48.2256,46.7217,286.81,30,51,3.7,RU,1681742320
173,saldanha,-33.0117,17.9442,301.18,71,8,5.37,ZA,1681742321
174,dondo,-19.6094,34.7431,299.88,72,5,2.02,MZ,1681742231
175,taltal,-25.4,-70.4833,292.86,67,18,2.99,CL,1681742323
176,puerto ayora,-0.7393,-90.3518,301.13,75,100,0.89,EC,1681742323
177,denpasar,-8.65,115.2167,300.96,83,20,2.57,ID,1681742056
178,torbay,47.6666,-52.7314,274.68,90,100,3.09,CA,1681742153
179,tiksi,71.6872,128.8694,256.66,100,100,1.21,RU,1681742325
180,vestmannaeyjar,63.4427,-20.2734,282.7,93,75,9.26,IS,1681742326
181,ornskoldsvik,63.2909,18.7153,284.68,37,0,2.06,SE,1681742327
182,quatre cocos,-20.2078,57.7625,297.64,77,43,4.74,MU,1681742329
183,manokwari,-0.8667,134.0833,299.3,84,100,3.46,ID,1681742329
184,coihaique,-45.5752,-72.0662,279.12,56,75,3.09,CL,1681742330
185,casian,11.035,119.7136,301.7,72,97,1.84,PH,1681742331
186,east london,-33.0153,27.9116,300.67,44,0,2.57,ZA,1681742333
187,fare,-16.7,-151.0167,300.81,74,83,4.87,PF,1681742333
188,banjar,-8.19,114.9675,298.48,91,89,1.02,ID,1681742334
189,carupano,10.6678,-63.2585,301.53,68,100,6.14,VE,1681742334
190,mount gambier,-37.8333,140.7667,287.17,90,77,3.62,AU,1681742335
191,havre-saint-pierre,50.2334,-63.5986,277.35,75,100,4.63,CA,1681742336
192,kralendijk,12.15,-68.2667,301.14,69,75,6.17,BQ,1681742336
193,bairiki,1.3292,172.9752,301.15,83,20,0.51,KI,1681742337
194,gornopravdinsk,60.05,69.9,263.44,85,94,3.34,RU,1681742337
195,vanimo,-2.6741,141.3028,299.06,88,99,3.19,PG,1681742338
196,tougue,11.4667,-11.6,310.99,9,73,3.46,GN,1681742339
197,cidreira,-30.1811,-50.2056,295.73,67,32,6.8,BR,1681742340
198,taitung,22.7583,121.1444,295.3,49,20,2.57,TW,1681742340
199,la paz,-16.5,-68.15,289.58,31,40,1.03,BO,1681742341
200,bethal,-26.4579,29.4655,297.9,21,0,1.16,ZA,1681742342
201,saint anthony,45.0205,-93.218,275.45,68,0,11.83,US,1681742342
202,agboville,5.928,-4.2132,299.62,83,100,0.84,CI,1681742343
203,chirilagua,13.2203,-88.1386,302.01,49,30,1.6,SV,1681742344
204,pringsewu,-5.3582,104.9744,297.45,94,96,2.1,ID,1681742344
205,ukiah,39.1502,-123.2078,281.13,84,40,0.0,US,1681742345
206,isla mujeres,21.2311,-86.731,298.24,64,94,5.22,MX,1681742345
207,gao,16.6362,1.637,312.7,5,0,5.59,ML,1681742346
208,bandarbeyla,9.4942,50.8122,301.32,68,0,4.38,SO,1681742347
209,xiongyue,40.1774,122.1228,284.16,60,100,8.03,CN,1681742347
210,narsaq,60.9167,-46.05,280.27,68,100,2.11,GL,1681742348
211,rawson,-43.3002,-65.1023,283.91,43,4,3.5,AR,1681742349
212,fairbanks,64.8378,-147.7164,264.13,84,100,1.54,US,1681742349
213,ilulissat,69.2167,-51.1,269.16,80,75,6.69,GL,1681742350
214,muscatine,41.4667,-91.1335,278.76,58,83,11.83,US,1681742350
215,port hardy,50.6996,-127.4199,278.15,81,100,8.75,CA,1681742351
216,topeka,39.0483,-95.678,284.5,41,0,3.6,US,1681742322
217,kruisfontein,-34.0033,24.7314,296.14,39,0,1.63,ZA,1681742352
218,pastavy,55.1168,26.8326,286.89,52,33,2.52,BY,1681742353
219,constitucion,-35.3333,-72.4167,287.67,51,0,4.76,CL,1681742353
220,nome,64.5011,-165.4064,252.19,77,0,0.0,US,1681742354
221,port augusta,-32.5,137.7667,290.74,47,98,1.13,AU,1681742355
222,kingaroy,-26.5333,151.8333,289.87,83,34,5.5,AU,1681742265
223,bataipora,-22.2953,-53.2711,300.18,79,5,3.57,BR,1681742356
224,laguna,38.421,-121.4238,284.29,87,100,5.66,US,1681742356
225,nazca,-14.8333,-74.95,298.02,59,91,2.2,PE,1681742357
226,benjamin aceval,-24.9667,-57.5667,295.23,94,100,1.78,PY,1681742358
227,saint-pierre,-21.3393,55.4781,300.97,69,0,1.54,RE,1681742359
228,beihai,21.4833,109.1,298.02,89,13,7.04,CN,1681742360
229,chernyy yar,48.0624,46.1091,287.33,28,39,4.04,RU,1681742361
230,camacha,33.0833,-16.3333,292.83,68,40,7.72,PT,1681742363
231,waddan,29.1614,16.139,300.15,20,0,3.41,LY,1681742363
232,saint-georges,12.0564,-61.7485,301.97,65,40,8.23,GD,1681742364
233,sur,22.5667,59.5289,300.87,60,36,2.15,OM,1681742364
234,kurilsk,45.2333,147.8833,272.29,85,100,12.5,RU,1681742365
235,saskylakh,71.9167,114.0833,251.65,100,96,1.93,RU,1681742366
236,san patricio,28.017,-97.5169,297.07,48,3,5.75,US,1681742366
237,nhamunda,-2.1861,-56.7131,300.83,84,100,1.62,BR,1681742367
238,bam,29.106,58.357,297.55,21,98,5.06,IR,1681742368
239,harpalpur,25.2884,79.3347,308.71,12,10,4.0,IN,1681742368
240,wajima,37.4,136.9,282.77,77,66,4.61,JP,1681742294
241,dikson,73.5069,80.5464,255.93,100,53,2.65,RU,1681742369
242,chornukhy,50.2673,32.942,287.01,41,61,5.9,UA,1681742370
243,willowmore,-33.2926,23.4895,301.71,12,1,4.55,ZA,1681742371
244,khatanga,71.9667,102.5,255.08,98,72,3.68,RU,1681742371
245,fatehpur,25.9333,80.8,308.15,11,1,3.77,IN,1681742136
246,remedios,22.4947,-79.5458,302.66,57,0,1.75,CU,1681742372
247,igarka,67.4667,86.5833,257.37,93,100,2.31,RU,1681742375
248,dagda,56.0951,27.5372,283.8,74,99,1.71,LV,1681742376
249,wawa,9.9022,4.4192,310.35,29,100,1.6,NG,1681742377
250,itoman,26.1247,127.6694,296.36,83,0,3.6,JP,1681742379
251,goryachegorsk,55.4053,88.9154,268.65,88,100,5.07,RU,1681742380
252,marsa matruh,31.3525,27.2453,296.26,46,0,5.66,EG,1681742380
253,sitrah,26.1547,50.6206,299.27,50,0,2.06,BH,1681742381
254,mokhotlong,-29.2894,29.0675,289.29,35,0,1.48,LS,1681742381
255,karasjok,69.4719,25.5112,275.7,97,99,5.86,NO,1681742382
256,baykit,61.67,96.37,262.86,93,90,1.79,RU,1681742383
257,akdepe,42.0551,59.3788,285.2,27,0,7.36,TM,1681742383
258,constantine,36.365,6.6147,287.82,54,75,5.66,DZ,1681742384
259,juneau,58.3019,-134.4197,277.16,97,100,0.0,US,1681742365
260,souillac,-20.5167,57.5167,299.2,81,28,4.59,MU,1681742385
261,vallenar,-28.5708,-70.7581,293.71,46,2,1.85,CL,1681742385
262,bandar-e lengeh,26.5579,54.8807,299.21,50,100,4.12,IR,1681742386
263,troy,42.6056,-83.1499,277.32,86,100,7.2,US,1681742295
264,yining,29.0361,114.5636,295.92,79,68,1.49,CN,1681742387
265,santa cruz,-17.8,-63.1667,298.85,94,75,5.14,BO,1681742365
266,udachnyy,66.4167,112.4,269.1,97,100,2.18,RU,1681742389
267,srednekolymsk,67.45,153.6833,266.74,96,100,2.32,RU,1681742390
268,luderitz,-26.6481,15.1594,297.31,44,7,1.53,NA,1681742391
269,nefteyugansk,61.0998,72.6035,260.25,92,100,5.33,RU,1681742392
270,asau,46.4333,26.4,281.66,96,100,2.35,RO,1681742393
271,cayenne,4.9333,-52.3333,297.17,100,100,3.6,GF,1681742177
272,saint george,37.1041,-113.5841,283.48,43,0,0.0,US,1681742394
273,riberalta,-10.9833,-66.1,301.26,83,75,2.06,BO,1681742395
274,severo-kurilsk,50.6789,156.125,274.43,97,100,8.28,RU,1681742395
275,hay river,60.8156,-115.7999,276.14,65,75,6.17,CA,1681742396
276,moses lake,47.1301,-119.2781,274.35,75,0,1.54,US,1681742396
277,casablanca,33.5928,-7.6192,304.27,68,20,3.09,MA,1681742234
278,pesochnoye,58.006,39.1772,283.5,56,99,2.35,RU,1681742398
279,seoul,37.5683,126.9778,288.91,45,0,2.57,KR,1681741808
280,bahia blanca,-38.7196,-62.2724,289.16,86,73,2.24,AR,1681742328
281,malanville,11.8685,3.3899,314.1,18,70,1.59,BJ,1681742400
282,road town,18.4167,-64.6167,300.17,69,75,2.57,VG,1681742396
283,korampallam,8.7667,78.1,302.63,66,0,5.39,IN,1681742362
284,makat,47.6469,53.3463,286.91,27,0,1.62,KZ,1681742404
285,coquimbo,-29.9533,-71.3436,289.0,77,20,1.54,CL,1681742194
286,aitape,-3.1374,142.3475,298.96,88,90,2.32,PG,1681742406
287,kortkeros,61.8106,51.5806,285.15,96,36,0.55,RU,1681742407
288,lorengau,-2.0226,147.2712,300.04,83,100,2.64,PG,1681742408
289,lubango,-14.9172,13.4925,297.31,42,65,2.07,AO,1681742411
290,tilichiki,60.4667,166.1,272.43,97,100,6.56,RU,1681742412
291,sorland,67.667,12.6934,281.07,81,40,4.12,NO,1681742413
292,esperance,-33.8667,121.9,290.72,73,99,7.96,AU,1681742414
293,koutsouras,35.0339,25.9469,293.77,69,9,3.07,GR,1681742415
294,hovd,48.0056,91.6419,280.8,58,2,8.13,MN,1681742416
295,kutum,14.2,24.6667,307.24,9,30,3.8,SD,1681742417
296,tasiilaq,65.6145,-37.6368,275.24,98,100,9.05,GL,1681742418
297,mendi,-6.1761,143.6513,284.86,97,94,1.6,PG,1681742419
298,rio grande,-32.035,-52.0986,295.21,66,70,6.92,BR,1681742147
299,kerman,30.2832,57.0788,293.07,26,75,3.09,IR,1681742407
300,provideniya,64.3833,-173.3,256.28,100,98,0.93,RU,1681742423
301,sao gabriel da cachoeira,-0.1303,-67.0892,297.04,100,75,1.54,BR,1681742424
302,nouadhibou,20.931,-17.0347,297.14,57,20,7.72,MR,1681742424
303,gamba,-2.65,10.0,301.89,67,29,3.89,GA,1681742426
304,gumdag,39.2061,54.5906,288.83,14,5,7.4,TM,1681742427
305,inhambane,-23.865,35.3833,300.14,57,20,4.12,MZ,1681742428
306,ilheus,-14.7889,-39.0494,303.05,70,75,5.14,BR,1681742428
307,muzhi,65.3667,64.6667,260.37,86,4,0.83,RU,1681742429
308,tazovskiy,67.4667,78.7,260.88,97,100,2.27,RU,1681742430
309,andenes,69.3143,16.1194,280.33,81,75,5.66,NO,1681742430
310,alofi,-19.0595,-169.9187,297.09,83,100,5.14,NU,1681742436
311,wuzhou,23.4833,111.3167,298.42,71,100,2.07,CN,1681742437
312,simpang,-1.2667,104.0833,297.52,94,38,0.95,ID,1681742438
313,ribeira brava,32.65,-17.0667,296.32,74,90,0.35,PT,1681742439
314,nuevo casas grandes,30.4167,-107.9167,293.01,21,4,2.09,MX,1681742439
315,te anau,-45.4167,167.7167,284.53,94,100,1.73,NZ,1681742440
316,lazarev,52.225,141.5131,266.97,90,13,3.26,RU,1681742440
317,hasaki,35.7333,140.8333,284.37,59,9,4.04,JP,1681742441
318,gat,31.61,34.7642,303.37,100,0,4.54,IL,1681742442
319,portland,45.5234,-122.6762,280.35,79,75,7.72,US,1681742327
320,medea,36.2642,2.7539,290.99,28,3,2.89,DZ,1681742444
321,chake chake,-5.2459,39.7666,300.02,79,97,4.64,TZ,1681742445
322,kudahuvadhoo,2.6708,72.8944,302.07,66,7,0.14,MV,1681742446
323,kihei,20.785,-156.4656,295.84,86,0,2.06,US,1681742447
324,bulaevo,54.9056,70.4439,269.92,35,20,5.16,KZ,1681742448
325,kapuskasing,49.4169,-82.4331,272.2,93,100,2.57,CA,1681742449
326,yerbogachen,61.2767,108.0108,256.83,93,31,1.36,RU,1681742450
327,son la,21.3167,103.9,298.65,38,0,1.97,VN,1681742451
328,mayo,38.8876,-76.5119,290.51,47,20,4.63,US,1681742452
329,el doncello,1.6782,-75.2847,297.27,87,100,0.97,CO,1681742452
330,nuevo progreso,23.1667,-97.95,296.19,73,49,0.89,MX,1681742453
331,port-cartier,50.0334,-66.8654,277.45,88,100,5.98,CA,1681742454
332,phitsanulok,16.9167,100.5,305.21,37,2,2.89,TH,1681742454
333,kelowna,49.8831,-119.4857,278.7,52,0,1.03,CA,1681742410
334,jiuquan,39.7432,98.5174,290.05,28,100,3.48,CN,1681742458
335,liezen,47.5667,14.2333,284.51,69,91,1.94,AT,1681742458
336,port lincoln,-34.7333,135.8667,289.48,92,1,4.44,AU,1681742459
337,hervey bay,-25.2986,152.8535,296.8,72,34,9.97,AU,1681742223
338,san cristobal,7.7669,-72.225,291.25,83,100,0.39,VE,1681742460
339,vidim,56.4088,103.1106,269.27,66,100,4.28,RU,1681742461
340,panacan,9.2463,118.4082,300.32,82,22,2.22,PH,1681742462
341,port saint john,28.477,-80.7887,295.11,87,100,5.66,US,1681742462
342,shihezi,44.3,86.0333,289.1,47,100,3.56,CN,1681742463
343,salaya,22.3167,69.6,301.17,69,0,5.73,IN,1681742464
344,tha mai,12.6214,102.0048,303.18,78,93,2.66,TH,1681742399
345,nuuk,64.1835,-51.7216,272.49,69,20,4.12,GL,1681742466
346,changji,44.0167,87.3167,288.59,58,0,5.0,CN,1681742467
347,novaya zaimka,56.4857,66.9241,270.63,41,0,3.22,RU,1681742468
348,macau,22.2006,113.5461,300.85,94,40,3.09,MO,1681742468
349,jaca,42.569,-0.5499,292.66,30,21,3.01,ES,1681742469
350,vao,-22.6667,167.4833,299.31,86,100,2.3,NC,1681742470
351,dornoch,57.8805,-4.0288,292.14,78,40,4.63,GB,1681742471
352,chachapoyas,-6.2317,-77.869,290.37,81,95,1.11,PE,1681742321
353,lompoc,34.6391,-120.4579,284.14,84,100,6.26,US,1681742473
354,berlevag,70.8578,29.0864,278.15,87,75,8.23,NO,1681742474
355,krasyliv,49.6519,26.9725,284.49,56,100,5.18,UA,1681742474
356,corralillo,22.9819,-80.5856,302.6,56,0,3.58,CU,1681742475
357,lasa,46.6166,10.7002,289.65,76,99,2.09,IT,1681742476
358,odweyne,9.4092,45.064,303.53,26,68,6.45,SO,1681742477
359,kirakira,-10.4544,161.9205,298.29,84,97,2.23,SB,1681742478
360,ahuimanu,21.4447,-157.8378,295.99,90,20,2.06,US,1681742479
361,sao filipe,14.8961,-24.4956,297.95,74,53,6.02,CV,1681742480
362,santa catalina,9.3337,122.8637,300.2,79,8,1.21,PH,1681742481
363,dolores,-36.3132,-57.6792,292.38,35,9,2.84,AR,1681742482
364,sribne,50.6638,32.9187,286.68,41,72,5.41,UA,1681742483
365,middle island,40.8843,-72.9373,288.04,97,100,2.57,US,1681742484
366,karratha,-20.7377,116.8463,298.1,40,51,1.96,AU,1681742485
367,puerto madryn,-42.7692,-65.0385,284.61,40,4,4.71,AR,1681742487
368,cromarty,57.6805,-4.0339,292.05,73,20,4.63,GB,1681742487
369,locri,38.2414,16.2623,288.57,63,97,2.79,IT,1681742488
370,naze,28.3667,129.4833,292.66,71,0,3.44,JP,1681742489
371,nenton,15.8,-91.75,300.18,47,71,1.99,GT,1681742491
372,asheville,35.6009,-82.554,288.13,36,0,3.6,US,1681742455
373,sao desiderio,-12.3633,-44.9733,306.11,37,68,2.71,BR,1681742492
374,rio gallegos,-51.6226,-69.2181,273.18,100,100,7.72,AR,1681742493
375,gigmoto,13.7796,124.39,300.1,85,24,2.53,PH,1681742494
376,rovnoye,50.7765,46.0509,285.1,40,42,3.14,RU,1681742494
377,khed brahma,24.0333,73.05,305.52,15,0,3.61,IN,1681742495
378,college,64.8569,-147.8028,264.12,83,100,1.54,US,1681742496
379,huilong,31.8111,121.655,291.09,80,5,5.95,CN,1681742497
380,podgorica,42.4411,19.2636,293.03,37,40,1.54,ME,1681742490
381,puerto maldonado,-12.6,-69.1833,300.37,83,75,1.54,PE,1681742249
382,fort nelson,58.8053,-122.7002,277.92,65,75,1.54,CA,1681742485
383,milledgeville,33.0801,-83.2321,290.06,49,0,6.17,US,1681742499
384,ratnagiri,16.9833,73.3,301.1,74,0,3.91,IN,1681742500
385,nihommatsu,37.5833,140.4333,281.65,81,96,2.22,JP,1681742500
386,rawa mazowiecka,51.7644,20.2549,285.32,85,100,5.03,PL,1681742501
387,abu samrah,35.3029,37.1841,299.86,29,13,2.13,SY,1681742502
388,methoni,36.8197,21.7049,292.16,69,78,3.07,GR,1681742502
389,phon,15.816,102.5998,309.18,41,72,4.87,TH,1681742503
390,puerto quijarro,-17.7833,-57.7667,305.19,55,93,2.93,BO,1681742504
391,bertoua,4.5833,13.6833,304.98,41,92,2.64,CM,1681742505
392,vardo,70.3705,31.1107,276.14,87,75,7.2,NO,1681742505
393,udayagiri,20.1333,84.3833,303.89,34,100,0.73,IN,1681742506
394,okha,53.5739,142.9478,270.21,85,100,6.17,RU,1681742507
395,rudbar,30.15,62.6,296.29,23,0,7.59,AF,1681742507
396,turan,16.0678,108.2208,301.14,83,40,1.03,VN,1681742332
397,kodiak,57.79,-152.4072,271.88,51,20,7.72,US,1681742509
398,sarkand,45.41,79.9186,281.12,65,100,4.69,KZ,1681742510
399,evensk,61.95,159.2333,271.32,94,100,9.02,RU,1681742511
400,half moon bay,37.4636,-122.4286,284.07,85,75,8.75,US,1681742512
401,tuy hoa,13.0833,109.3,297.89,86,27,1.94,VN,1681742513
402,broome,42.2506,-75.833,281.98,84,100,2.06,US,1681742514
403,lidkoping,58.5052,13.1577,286.71,37,9,3.05,SE,1681742515
404,kviteseid,59.4022,8.4927,287.57,71,98,1.09,NO,1681742515
405,inuvik,68.3499,-133.7218,257.71,82,100,5.66,CA,1681742516
406,avera,33.194,-82.5271,290.12,43,61,6.25,US,1681742518
407,balkanabat,39.5108,54.3671,289.08,15,7,5.62,TM,1681742518
408,itaituba,-4.2761,-55.9836,303.24,74,40,0.0,BR,1681742315
409,edd,13.9297,41.6925,307.22,43,8,11.24,ER,1681742520
410,nipawin,53.3668,-104.0009,276.17,75,0,5.66,CA,1681742522
411,grong,64.4654,12.3149,285.75,80,72,1.54,NO,1681742522
412,aksu,41.1231,80.2644,293.38,24,72,2.78,CN,1681742356
413,guerrero negro,27.9769,-114.0611,287.87,75,80,6.65,MX,1681742524
414,kaabong,3.4836,34.1492,296.65,58,100,4.84,UG,1681742524
415,mbandaka,0.0487,18.2603,300.59,68,75,0.84,CD,1681742525
416,iturama,-19.7281,-50.1956,302.03,60,0,3.11,BR,1681742323
417,iquique,-20.2208,-70.1431,294.17,69,76,2.4,CL,1681742527
418,tura,25.5198,90.2201,301.85,23,0,2.12,IN,1681742528
419,tanabe,33.7333,135.3667,283.75,71,2,1.81,JP,1681742529
420,arman,59.7,150.1667,267.05,79,79,4.37,RU,1681742530
421,palmerston,-12.486,130.9833,298.14,76,99,2.57,AU,1681742314
422,wum,6.3833,10.0667,301.67,48,75,0.86,CM,1681742531
423,beringovskiy,63.05,179.3167,264.46,98,100,1.75,RU,1681742532
424,erenhot,43.6475,111.9767,283.04,19,0,6.57,CN,1681742532
425,ballina,-28.8667,153.5667,291.36,70,64,6.47,AU,1681742533
426,ambilobe,-13.2,49.05,298.51,84,41,0.22,MG,1681742534
427,krasnoselkup,65.7,82.4667,258.31,96,100,2.66,RU,1681742535
428,along,28.1667,94.7667,296.27,55,55,1.11,IN,1681742535
429,peleduy,59.6289,112.7406,262.0,97,95,1.12,RU,1681742537
430,petropavlovsk-kamchatskiy,53.0452,158.6483,273.48,100,100,1.0,RU,1681742538
431,ellensburg,46.9965,-120.5479,274.13,80,0,3.6,US,1681742459
432,san pedro,14.35,121.0167,301.72,80,20,2.06,PH,1681742540
433,leningradskiy,69.3833,178.4167,251.73,86,27,2.66,RU,1681742541
434,salinopolis,-0.6136,-47.3561,300.72,82,96,1.8,BR,1681742543
435,storsteinnes,69.2408,19.2344,277.51,100,100,1.8,NO,1681742544
436,namibe,-15.1961,12.1522,299.06,73,65,5.89,AO,1681742545
437,hami,42.8,93.45,295.22,21,5,3.21,CN,1681742546
438,meulaboh,4.1363,96.1285,299.93,82,48,0.33,ID,1681742551
439,baoqing,46.3317,132.2111,278.08,39,76,2.61,CN,1681742552
440,la primavera,5.4906,-70.4092,297.14,90,100,2.53,CO,1681742552
441,padang,-0.9492,100.3543,300.18,87,43,1.18,ID,1681742553
442,ishigaki,24.3448,124.1572,296.22,88,20,3.6,JP,1681742554
443,talnakh,69.4865,88.3972,259.38,91,100,1.0,RU,1681742554
444,cabedelo,-6.9811,-34.8339,303.52,74,97,4.0,BR,1681742555
445,rantepao,-2.9701,119.8978,293.43,99,100,0.93,ID,1681742556
446,okhotsk,59.3833,143.3,264.62,94,15,2.79,RU,1681742557
447,benguela,-12.5763,13.4055,302.14,72,82,4.02,AO,1681742558
448,pahrump,36.2083,-115.9839,291.07,31,18,3.58,US,1681742446
449,oudtshoorn,-33.5907,22.2014,293.35,19,3,3.93,ZA,1681742559
450,xining,36.6167,101.7667,285.63,34,41,7.32,CN,1681742352
451,sibolga,1.7427,98.7792,298.9,90,92,1.1,ID,1681742560
452,dubai,25.2582,55.3047,299.31,50,0,5.14,AE,1681742140
453,labuan,5.2767,115.2417,300.35,89,20,0.51,MY,1681742561
454,sambava,-14.2667,50.1667,299.24,84,10,6.39,MG,1681742561
455,arlit,18.7369,7.3853,312.84,6,1,7.42,NE,1681742563
456,hamilton,39.1834,-84.5333,280.78,65,100,8.75,US,1681742333
457,ponta delgada,37.7333,-25.6667,289.55,67,40,6.17,PT,1681742567
458,thabazimbi,-24.5917,27.4116,298.82,24,0,1.97,ZA,1681742568
459,aktash,50.3,87.7333,267.17,78,63,4.58,RU,1681742570
460,puerto del rosario,28.5004,-13.8627,298.01,44,20,8.23,ES,1681742571
461,maneadero,31.7167,-116.5667,285.43,81,32,0.89,MX,1681742573
462,tiquisio,8.5597,-74.2669,300.11,80,99,0.84,CO,1681742574
463,richards bay,-28.783,32.0377,298.04,69,5,5.53,ZA,1681742574
464,lemgo,52.0333,8.9,288.74,54,89,2.24,DE,1681742575
465,galle,6.0367,80.217,301.3,70,11,0.78,LK,1681742576
466,bontang,0.1333,117.5,301.03,80,100,2.39,ID,1681742577
467,zhuhai,22.2769,113.5678,300.85,94,40,3.09,CN,1681742580
468,ojinaga,29.5667,-104.4167,293.94,37,0,4.12,MX,1681742581
469,borogontsy,62.6683,131.1683,272.33,96,99,3.09,RU,1681742582
470,dorogobuzh,54.915,33.2972,282.36,73,100,1.36,RU,1681742582
471,sanghar,26.0466,68.9481,306.69,25,14,9.84,PK,1681742553
472,russell,32.3502,-85.1999,290.04,35,0,4.52,US,1681742583
473,belogorsk,50.9158,128.4611,281.21,40,100,6.46,RU,1681742584
474,syracuse,37.0881,15.2792,289.92,64,47,5.99,IT,1681742585
475,sistranda,63.7256,8.834,287.13,66,35,2.3,NO,1681742586
476,iberia,29.9502,-91.7507,291.53,59,0,2.06,US,1681742586
477,bodden town,19.2833,-81.25,301.47,77,20,1.79,KY,1681742587
478,trairi,-3.2778,-39.2689,303.17,67,64,3.68,BR,1681742412
479,astana,51.1801,71.446,270.12,63,75,6.0,KZ,1681742352
480,sumalig,7.9986,123.6627,297.61,87,86,1.16,PH,1681742589
481,zhezkazgan,47.8043,67.7144,275.14,48,40,5.0,KZ,1681742590
482,ca mau,9.1769,105.15,300.29,83,100,1.75,VN,1681742421
483,preobrazheniye,42.9019,133.9064,277.2,67,5,2.69,RU,1681742592
484,coruripe,-10.1256,-36.1756,301.85,68,86,4.12,BR,1681742592
485,muroto,33.2833,134.15,288.4,57,9,1.01,JP,1681742593
486,carahue,-38.7,-73.1667,285.96,60,63,1.13,CL,1681742594
487,soyo,-6.1349,12.3689,301.08,78,94,3.5,AO,1681742594
488,san andres,12.5847,-81.7006,302.16,65,100,4.63,CO,1681742595
489,porto novo,6.4965,2.6036,304.05,57,98,4.68,BJ,1681742596
490,lavrentiya,65.5833,-171.0,250.97,100,90,1.8,RU,1681742597
491,krasnyy kut,50.95,46.9667,285.52,33,41,2.75,RU,1681742599
492,dicabisagan,17.0818,122.4157,298.73,88,32,0.8,PH,1681742601
493,kemijarvi,66.7131,27.4306,275.94,95,63,1.52,FI,1681742602
494,roma,43.2128,-75.4557,281.69,92,100,0.45,US,1681742602
495,nkhotakota,-12.9274,34.2961,297.2,79,30,4.82,MW,1681742603
496,dongsheng,39.8161,109.9776,284.96,24,3,4.81,CN,1681742603
497,churapcha,62.0025,132.4325,270.1,96,100,2.69,RU,1681742605
498,biak,-0.9131,122.8766,298.08,87,72,0.87,ID,1681742606
499,marsh harbour,26.5412,-77.0636,299.28,76,100,6.64,BS,1681742607
500,roebourne,-20.7833,117.1333,298.26,35,44,2.53,AU,1681742607
501,baiao,-2.7906,-49.6717,303.11,69,100,0.77,BR,1681742608
502,byron bay,-28.65,153.6167,291.32,71,45,6.48,AU,1681742216
503,den helder,52.9599,4.7593,287.6,83,23,6.71,NL,1681742613
504,svetlyy,54.675,20.1347,281.18,74,95,4.77,RU,1681742613
505,pemangkat,1.1667,108.9667,300.28,81,82,2.56,ID,1681742614
506,rocha,-34.4833,-54.3333,291.76,40,14,4.62,UY,1681742614
507,nurota,40.5614,65.6886,281.7,38,98,5.08,UZ,1681742616
508,saint-augustin,51.226,-58.6502,278.39,50,45,1.84,CA,1681742617
509,dunedin,-45.8742,170.5036,287.78,67,100,1.09,NZ,1681742397
510,callaway,30.153,-85.5699,293.66,41,0,4.63,US,1681742618
511,gonzalez,30.5816,-87.2914,292.45,49,0,4.12,US,1681742337
512,albania,41.0,20.0,285.06,87,100,2.42,AL,1681742619
513,dargaville,-35.9333,173.8833,290.1,89,58,3.85,NZ,1681742619
514,bud,39.447,-86.1758,279.12,90,97,9.88,US,1681742620
515,vila franca do campo,37.7167,-25.4333,289.38,60,64,4.65,PT,1681742621
516,el cope,8.6167,-80.6,299.65,57,65,2.71,PA,1681742621
517,machaneng,-23.1862,27.4886,300.11,23,0,0.42,BW,1681742622
518,queenstown,-31.8976,26.8753,298.0,21,0,2.97,ZA,1681742622
519,mwinilunga,-11.7358,24.4293,292.18,91,100,2.48,ZM,1681742623
520,pocone,-16.2567,-56.6228,305.63,50,62,2.81,BR,1681742624
521,acarau,-2.8856,-40.12,302.79,69,85,3.9,BR,1681742604
522,mackay,-21.15,149.2,296.86,72,96,6.19,AU,1681742625
523,husavik,66.0449,-17.3389,282.57,81,100,7.95,IS,1681742625
524,sao joao do piaui,-8.3581,-42.2467,309.09,30,96,2.39,BR,1681742626
525,axim,4.8699,-2.2405,303.43,63,100,4.37,GH,1681742628
526,soria,41.6667,-2.6667,288.63,21,0,5.46,ES,1681742629
527,burnie,-41.0667,145.9167,285.34,90,17,1.34,AU,1681742630
528,uthal,25.8072,66.6219,301.52,56,47,4.77,PK,1681742632
529,lebanon,36.2081,-86.2911,287.5,40,0,4.63,US,1681742369
530,mayya,61.7333,130.2811,273.77,96,100,5.09,RU,1681742635
531,martinsicuro,42.8811,13.9145,285.9,99,100,4.74,IT,1681742636
532,toora-khem,52.4675,96.11,272.28,90,100,1.73,RU,1681742637
533,vanavara,60.34,102.2797,260.29,95,74,1.31,RU,1681742638
534,roald,62.5833,6.1333,287.66,47,0,2.57,NO,1681742639
535,chulym,55.0997,80.9572,262.62,60,84,7.76,RU,1681742640
536,berdigestyakh,62.0989,126.6992,265.06,95,100,3.21,RU,1681742641
537,caraballeda,10.6112,-66.8522,305.29,63,99,4.12,VE,1681742642
538,urucui,-7.2294,-44.5561,308.4,42,56,0.95,BR,1681742643
539,olafsvik,64.8945,-23.7142,281.05,87,16,6.25,IS,1681742643
540,cap malheureux,-19.9842,57.6142,297.85,83,20,1.34,MU,1681742644
541,lhokseumawe,5.1801,97.1507,300.69,82,87,1.31,ID,1681742645
